[
  {"id":"loc_001","lat":45.41,"lon":141.67,"name":"Wakkanai"},
  {"id":"loc_002","lat":44.35,"lon":142.45,"name":"Nayoro"},
  {"id":"loc_003","lat":44.02,"lon":144.27,"name":"Abashiri"},
  {"id":"loc_004","lat":43.77,"lon":142.36,"name":"Asahikawa"},
  {"id":"loc_005","lat":43.23,"lon":142.85,"name":"Furano"},
  {"id":"loc_006","lat":42.98,"lon":144.38,"name":"Kushiro"},
  {"id":"loc_007","lat":43.06,"lon":141.35,"name":"Sapporo"},
  {"id":"loc_008","lat":42.32,"lon":140.97,"name":"Muroran"},
  {"id":"loc_009","lat":41.77,"lon":140.73,"name":"Hakodate"},
  {"id":"loc_010","lat":40.82,"lon":140.74,"name":"Aomori"},
  {"id":"loc_011","lat":39.70,"lon":141.15,"name":"Morioka"},
  {"id":"loc_012","lat":38.26,"lon":140.87,"name":"Sendai"},
  {"id":"loc_013","lat":39.72,"lon":140.10,"name":"Akita"},
  {"id":"loc_014","lat":38.25,"lon":140.34,"name":"Yamagata"},
  {"id":"loc_015","lat":37.76,"lon":140.47,"name":"Fukushima"},
  {"id":"loc_016","lat":36.36,"lon":140.47,"name":"Mito"},
  {"id":"loc_017","lat":36.56,"lon":139.88,"name":"Utsunomiya"},
  {"id":"loc_018","lat":36.39,"lon":139.06,"name":"Maebashi"},
  {"id":"loc_019","lat":35.85,"lon":139.64,"name":"Saitama"},
  {"id":"loc_020","lat":35.61,"lon":140.12,"name":"Chiba"},
  {"id":"loc_021","lat":35.68,"lon":139.76,"name":"Tokyo"},
  {"id":"loc_022","lat":35.44,"lon":139.64,"name":"Yokohama"},
  {"id":"loc_023","lat":37.91,"lon":139.04,"name":"Niigata"},
  {"id":"loc_024","lat":36.70,"lon":137.21,"name":"Toyama"},
  {"id":"loc_025","lat":36.59,"lon":136.62,"name":"Kanazawa"},
  {"id":"loc_026","lat":36.06,"lon":136.22,"name":"Fukui"},
  {"id":"loc_027","lat":35.65,"lon":138.56,"name":"Kofu"},
  {"id":"loc_028","lat":36.65,"lon":138.18,"name":"Nagano"},
  {"id":"loc_029","lat":35.39,"lon":136.75,"name":"Gifu"},
  {"id":"loc_030","lat":34.97,"lon":138.38,"name":"Shizuoka"},
  {"id":"loc_031","lat":35.18,"lon":136.90,"name":"Nagoya"},
  {"id":"loc_032","lat":34.77,"lon":136.50,"name":"Tsu"},
  {"id":"loc_033","lat":35.00,"lon":135.86,"name":"Otsu"},
  {"id":"loc_034","lat":35.02,"lon":135.75,"name":"Kyoto"},
  {"id":"loc_035","lat":34.68,"lon":135.50,"name":"Osaka"},
  {"id":"loc_036","lat":34.69,"lon":135.19,"name":"Kobe"},
  {"id":"loc_037","lat":34.68,"lon":135.83,"name":"Nara"},
  {"id":"loc_038","lat":34.22,"lon":135.16,"name":"Wakayama"},
  {"id":"loc_039","lat":35.50,"lon":134.23,"name":"Tottori"},
  {"id":"loc_040","lat":35.47,"lon":133.05,"name":"Matsue"},
  {"id":"loc_041","lat":34.66,"lon":133.91,"name":"Okayama"},
  {"id":"loc_042","lat":34.39,"lon":132.45,"name":"Hiroshima"},
  {"id":"loc_043","lat":34.18,"lon":131.47,"name":"Yamaguchi"},
  {"id":"loc_044","lat":34.06,"lon":134.55,"name":"Tokushima"},
  {"id":"loc_045","lat":34.34,"lon":134.04,"name":"Takamatsu"},
  {"id":"loc_046","lat":33.84,"lon":132.76,"name":"Matsuyama"},
  {"id":"loc_047","lat":33.55,"lon":133.53,"name":"Kochi"},
  {"id":"loc_048","lat":33.59,"lon":130.40,"name":"Fukuoka"},
  {"id":"loc_049","lat":33.24,"lon":130.30,"name":"Saga"},
  {"id":"loc_050","lat":32.75,"lon":129.87,"name":"Nagasaki"},
  {"id":"loc_051","lat":32.80,"lon":130.70,"name":"Kumamoto"},
  {"id":"loc_052","lat":33.23,"lon":131.60,"name":"Oita"},
  {"id":"loc_053","lat":31.90,"lon":131.42,"name":"Miyazaki"},
  {"id":"loc_054","lat":31.56,"lon":130.55,"name":"Kagoshima"},
  {"id":"loc_055","lat":26.21,"lon":127.68,"name":"Naha"},
  {"id":"loc_056","lat":43.20,"lon":140.50,"name":"Iwanai"},
  {"id":"loc_057","lat":44.00,"lon":141.50,"name":"Rumoi"},
  {"id":"loc_058","lat":42.00,"lon":143.00,"name":"Erimo"},
  {"id":"loc_059","lat":43.50,"lon":145.00,"name":"Nemuro"},
  {"id":"loc_060","lat":40.50,"lon":141.50,"name":"Hachinohe"},
  {"id":"loc_061","lat":39.50,"lon":142.00,"name":"Miyako"},
  {"id":"loc_062","lat":38.50,"lon":141.50,"name":"Ishinomaki"},
  {"id":"loc_063","lat":37.50,"lon":141.00,"name":"Namie"},
  {"id":"loc_064","lat":37.00,"lon":140.90,"name":"Iwaki"},
  {"id":"loc_065","lat":35.80,"lon":140.80,"name":"Choshi"},
  {"id":"loc_066","lat":35.00,"lon":139.80,"name":"Tateyama"},
  {"id":"loc_067","lat":34.50,"lon":138.90,"name":"Shimoda"},
  {"id":"loc_068","lat":33.50,"lon":135.90,"name":"Shingu"},
  {"id":"loc_069","lat":33.00,"lon":133.00,"name":"Tosashimizu"},
  {"id":"loc_070","lat":32.50,"lon":130.00,"name":"Amakusa"},
  {"id":"loc_071","lat":30.50,"lon":130.50,"name":"Tanegashima"},
  {"id":"loc_072","lat":28.40,"lon":129.50,"name":"Amami"},
  {"id":"loc_073","lat":24.30,"lon":124.10,"name":"Ishigaki"},
  {"id":"loc_074","lat":37.50,"lon":137.00,"name":"Wajima"},
  {"id":"loc_075","lat":36.00,"lon":133.00,"name":"Oki"},
  {"id":"loc_076","lat":34.20,"lon":129.30,"name":"Tsushima"},
  {"id":"loc_077","lat":33.00,"lon":139.80,"name":"Hachijojima"},
  {"id":"loc_078","lat":27.00,"lon":142.20,"name":"Ogasawara"}
]
